{"businesses": [{"id": "ARXgHksCwCTPRo-44jIDcg", "alias": "flames-stockholm", "name": "Flames", "image_url": "https://s3-media2.fl.yelpcdn.com/bphoto/SLQt4xJ_7rd1tr-9DzYKsg/o.jpg", "is_closed": false, "url": "https://www.yelp.com/biz/flames-stockholm?adjust_creative=I7bVkPcI6_FKKPb-l4px1w&utm_campaign=yelp_api_v3&utm_medium=api_v3_business_search&utm_source=I7bVkPcI6_FKKPb-l4px1w", "review_count": 38, "categories": [{"alias": "salad", "title": "Salad"}, {"alias": "pizza", "title": "Pizza"}, {"alias": "italian", "title": "Italian"}], "rating": 4.5, "coordinates": {"latitude": 59.33626, "longitude": 18.06317}, "transactions": [], "price": "$", "location": {"address1": "Sveav\u00e4gen 34", "address2": null, "address3": "", "city": "Stockholm", "zip_code": "111 34", "country": "SE", "state": "AB", "display_address": ["Sveav\u00e4gen 34", "111  34 Stockholm", "Sweden"]}, "phone": "+46843755888", "display_phone": "+46 8 437 558 88", "distance": 775.8842539997446}, {"id": "Y48agF9t_ERynoADZZ6-8A", "alias": "da-peppe-ristorante-stockholm", "name": "Da Peppe Ristorante", "image_url": "https://s3-media4.fl.yelpcdn.com/bphoto/m054t34YX430AU7T0xwM3w/o.jpg", "is_closed": false, "url": "https://www.yelp.com/biz/da-peppe-ristorante-stockholm?adjust_creative=I7bVkPcI6_FKKPb-l4px1w&utm_campaign=yelp_api_v3&utm_medium=api_v3_business_search&utm_source=I7bVkPcI6_FKKPb-l4px1w", "review_count": 42, "categories": [{"alias": "italian", "title": "Italian"}, {"alias": "gluten_free", "title": "Gluten-Free"}], "rating": 4.5, "coordinates": {"latitude": 59.3258095, "longitude": 18.0674591}, "transactions": [], "price": "$$", "location": {"address1": "Storkyrkobrinken 16", "address2": null, "address3": null, "city": "Stockholm", "zip_code": "111 28", "country": "SE", "state": "AB", "display_address": ["Storkyrkobrinken 16", "111  28 Stockholm", "Sweden"]}, "phone": "+468103100", "display_phone": "+46 8 10 31 00", "distance": 464.2188743007278}, {"id": "WSOY7YLSvpH5uJV_Tu9EXw", "alias": "tutto-bello-stockholm", "name": "Tutto Bello", "image_url": "https://s3-media3.fl.yelpcdn.com/bphoto/ORznxWE-kTRPB-P6nS72FQ/o.jpg", "is_closed": false, "url": "https://www.yelp.com/biz/tutto-bello-stockholm?adjust_creative=I7bVkPcI6_FKKPb-l4px1w&utm_campaign=yelp_api_v3&utm_medium=api_v3_business_search&utm_source=I7bVkPcI6_FKKPb-l4px1w", "review_count": 38, "categories": [{"alias": "italian", "title": "Italian"}], "rating": 4.5, "coordinates": {"latitude": 59.3388535645773, "longitude": 18.0552556822553}, "transactions": [], "price": "$$", "location": {"address1": "Tegnerlunden 4", "address2": "", "address3": "", "city": "Stockholm", "zip_code": "113 59", "country": "SE", "state": "AB", "display_address": ["Tegnerlunden 4", "113  59 Stockholm", "Sweden"]}, "phone": "+468308850", "display_phone": "+46 8 30 88 50", "distance": 1155.483764735171}, {"id": "EibvRUnhT2kvy5OGMw0MzA", "alias": "feca-stockholm", "name": "Feca", "image_url": "https://s3-media2.fl.yelpcdn.com/bphoto/qchdpAi53mOKq8vn0KulnA/o.jpg", "is_closed": false, "url": "https://www.yelp.com/biz/feca-stockholm?adjust_creative=I7bVkPcI6_FKKPb-l4px1w&utm_campaign=yelp_api_v3&utm_medium=api_v3_business_search&utm_source=I7bVkPcI6_FKKPb-l4px1w", "review_count": 23, "categories": [{"alias": "italian", "title": "Italian"}, {"alias": "vegan", "title": "Vegan"}, {"alias": "pizza", "title": "Pizza"}], "rating": 4.0, "coordinates": {"latitude": 59.31708, "longitude": 18.05786}, "transactions": [], "price": "$", "location": {"address1": "Torkel Knutssonsgatan 35", "address2": "", "address3": "", "city": "Stockholm", "zip_code": "118 49", "country": "SE", "state": "AB", "display_address": ["Torkel Knutssonsgatan 35", "118  49 Stockholm", "Sweden"]}, "phone": "+4684289828", "display_phone": "+46 8 428 98 28", "distance": 1368.2553181349442}, {"id": "zq8rzVmtrQ1UTgkIv3sQNA", "alias": "trattoria-montanari-stockholm", "name": "Trattoria Montanari", "image_url": "https://s3-media4.fl.yelpcdn.com/bphoto/u5Rm7E5h_SrqJyUuCEFbTQ/o.jpg", "is_closed": false, "url": "https://www.yelp.com/biz/trattoria-montanari-stockholm?adjust_creative=I7bVkPcI6_FKKPb-l4px1w&utm_campaign=yelp_api_v3&utm_medium=api_v3_business_search&utm_source=I7bVkPcI6_FKKPb-l4px1w", "review_count": 15, "categories": [{"alias": "italian", "title": "Italian"}], "rating": 4.0, "coordinates": {"latitude": 59.3395043460312, "longitude": 18.0789203269836}, "transactions": [], "price": "$$", "location": {"address1": "Grev Turegatan 56", "address2": "", "address3": "", "city": "Stockholm", "zip_code": "114 38", "country": "SE", "state": "AB", "display_address": ["Grev Turegatan 56", "114  38 Stockholm", "Sweden"]}, "phone": "+4686607694", "display_phone": "+46 8 660 76 94", "distance": 1478.7799504460352}, {"id": "GI_jsxFvTYVOnqplg81JIA", "alias": "pap\u00e1-italiano-stockholm", "name": "Pap\u00e1 Italiano", "image_url": "https://s3-media2.fl.yelpcdn.com/bphoto/lg8DRnTXxMwhAVAM6FWrEQ/o.jpg", "is_closed": false, "url": "https://www.yelp.com/biz/pap%C3%A1-italiano-stockholm?adjust_creative=I7bVkPcI6_FKKPb-l4px1w&utm_campaign=yelp_api_v3&utm_medium=api_v3_business_search&utm_source=I7bVkPcI6_FKKPb-l4px1w", "review_count": 17, "categories": [{"alias": "italian", "title": "Italian"}], "rating": 4.0, "coordinates": {"latitude": 59.3343315, "longitude": 18.0776501}, "transactions": [], "price": "$$$", "location": {"address1": "Riddargatan 9", "address2": "", "address3": "", "city": "Stockholm", "zip_code": "114 51", "country": "SE", "state": "AB", "display_address": ["Riddargatan 9", "114  51 Stockholm", "Sweden"]}, "phone": "+4686618972", "display_phone": "+46 8 661 89 72", "distance": 1032.415929866069}, {"id": "QlBJd6UaC0AJ75kCrKb9ZA", "alias": "linguini-stockholm", "name": "Linguini", "image_url": "https://s3-media2.fl.yelpcdn.com/bphoto/OWXS_KzAPXXDx4ofwdQfZw/o.jpg", "is_closed": false, "url": "https://www.yelp.com/biz/linguini-stockholm?adjust_creative=I7bVkPcI6_FKKPb-l4px1w&utm_campaign=yelp_api_v3&utm_medium=api_v3_business_search&utm_source=I7bVkPcI6_FKKPb-l4px1w", "review_count": 36, "categories": [{"alias": "italian", "title": "Italian"}], "rating": 4.0, "coordinates": {"latitude": 59.3441315, "longitude": 18.0441208}, "transactions": [], "price": "$$", "location": {"address1": "Frejgatan 48", "address2": null, "address3": null, "city": "Stockholm", "zip_code": "113 26", "country": "SE", "state": "AB", "display_address": ["Frejgatan 48", "113  26 Stockholm", "Sweden"]}, "phone": "+468314915", "display_phone": "+46 8 31 49 15", "distance": 1968.808077664082}, {"id": "9cq4YsRIPy3byGpCRx-DTw", "alias": "paganini-stockholm", "name": "Paganini", "image_url": "https://s3-media4.fl.yelpcdn.com/bphoto/m6uek6HuXBxNCNEnH0ikYw/o.jpg", "is_closed": false, "url": "https://www.yelp.com/biz/paganini-stockholm?adjust_creative=I7bVkPcI6_FKKPb-l4px1w&utm_campaign=yelp_api_v3&utm_medium=api_v3_business_search&utm_source=I7bVkPcI6_FKKPb-l4px1w", "review_count": 32, "categories": [{"alias": "gourmet", "title": "Specialty Food"}, {"alias": "italian", "title": "Italian"}], "rating": 4.0, "coordinates": {"latitude": 59.3231812, "longitude": 18.0720997}, "transactions": [], "price": "$$", "location": {"address1": "V\u00e4sterl\u00e5nggatan 75", "address2": null, "address3": null, "city": "Stockholm", "zip_code": "111 29", "country": "SE", "state": "AB", "display_address": ["V\u00e4sterl\u00e5nggatan 75", "111  29 Stockholm", "Sweden"]}, "phone": "+4684060607", "display_phone": "+46 8 406 06 07", "distance": 862.9197678265778}, {"id": "Uce7-Dn62D6otUR9jNVzUQ", "alias": "frunch-stockholm", "name": "Frunch", "image_url": "https://s3-media1.fl.yelpcdn.com/bphoto/cR1eyeZkiPL46Ro_he0NRw/o.jpg", "is_closed": false, "url": "https://www.yelp.com/biz/frunch-stockholm?adjust_creative=I7bVkPcI6_FKKPb-l4px1w&utm_campaign=yelp_api_v3&utm_medium=api_v3_business_search&utm_source=I7bVkPcI6_FKKPb-l4px1w", "review_count": 3, "categories": [{"alias": "italian", "title": "Italian"}], "rating": 3.5, "coordinates": {"latitude": 59.3393802, "longitude": 18.0617043}, "transactions": [], "price": "$", "location": {"address1": "Luntmakargatan 44", "address2": "", "address3": "", "city": "Stockholm", "zip_code": "111 37", "country": "SE", "state": "AB", "display_address": ["Luntmakargatan 44", "111  37 Stockholm", "Sweden"]}, "phone": "+468202107", "display_phone": "+46 8 20 21 07", "distance": 1138.3967553354732}, {"id": "MxovoTTf0ee1haEfHRBSzg", "alias": "mancini-stockholm", "name": "Mancini", "image_url": "https://s3-media3.fl.yelpcdn.com/bphoto/88fAOrtqvR_13bwxJoANJA/o.jpg", "is_closed": false, "url": "https://www.yelp.com/biz/mancini-stockholm?adjust_creative=I7bVkPcI6_FKKPb-l4px1w&utm_campaign=yelp_api_v3&utm_medium=api_v3_business_search&utm_source=I7bVkPcI6_FKKPb-l4px1w", "review_count": 28, "categories": [{"alias": "italian", "title": "Italian"}], "rating": 4.5, "coordinates": {"latitude": 59.33688, "longitude": 18.06379}, "transactions": [], "price": "$$$", "location": {"address1": "H\u00f6rnet Tunnelgatan 1 & Luntmakargatan 12", "address2": null, "address3": null, "city": "Stockholm", "zip_code": "111 37", "country": "SE", "state": "AB", "display_address": ["H\u00f6rnet Tunnelgatan 1 & Luntmakargatan 12", "111  37 Stockholm", "Sweden"]}, "phone": "+468215310", "display_phone": "+46 8 21 53 10", "distance": 847.0304286042432}, {"id": "MeA58rIy3JZg5pmME8YevA", "alias": "meno-male-stockholm-3", "name": "Meno Male", "image_url": "https://s3-media3.fl.yelpcdn.com/bphoto/YggrWyAa7fD4DK2wwNmlQQ/o.jpg", "is_closed": false, "url": "https://www.yelp.com/biz/meno-male-stockholm-3?adjust_creative=I7bVkPcI6_FKKPb-l4px1w&utm_campaign=yelp_api_v3&utm_medium=api_v3_business_search&utm_source=I7bVkPcI6_FKKPb-l4px1w", "review_count": 6, "categories": [{"alias": "pizza", "title": "Pizza"}, {"alias": "italian", "title": "Italian"}], "rating": 4.0, "coordinates": {"latitude": 59.3288461344264, "longitude": 18.0450717702637}, "transactions": [], "price": "$$", "location": {"address1": "Hantverkargatan 14", "address2": "", "address3": null, "city": "Stockholm", "zip_code": "112 21", "country": "SE", "state": "AB", "display_address": ["Hantverkargatan 14", "112  21 Stockholm", "Sweden"]}, "phone": "+468141410", "display_phone": "+46 8 14 14 10", "distance": 992.1626678693782}, {"id": "4JVIdBGMXkHmAoo5YXEWOQ", "alias": "sallys-bar-stockholm", "name": "Sallys Bar", "image_url": "https://s3-media3.fl.yelpcdn.com/bphoto/TVr9OFIEk6j0rxM_k2jnMg/o.jpg", "is_closed": false, "url": "https://www.yelp.com/biz/sallys-bar-stockholm?adjust_creative=I7bVkPcI6_FKKPb-l4px1w&utm_campaign=yelp_api_v3&utm_medium=api_v3_business_search&utm_source=I7bVkPcI6_FKKPb-l4px1w", "review_count": 23, "categories": [{"alias": "italian", "title": "Italian"}], "rating": 4.0, "coordinates": {"latitude": 59.3238297, "longitude": 18.0709591}, "transactions": [], "price": "$$", "location": {"address1": "V\u00e4sterl\u00e5nggatan 52", "address2": null, "address3": null, "city": "Stockholm", "zip_code": "111 29", "country": "SE", "state": "AB", "display_address": ["V\u00e4sterl\u00e5nggatan 52", "111  29 Stockholm", "Sweden"]}, "phone": "+468202512", "display_phone": "+46 8 20 25 12", "distance": 755.4831625007307}, {"id": "rvCnHEs4a8ShgDaB08KsXg", "alias": "panini-stockholm", "name": "Panini", "image_url": "https://s3-media2.fl.yelpcdn.com/bphoto/pVhoW8yFDCoRur_SL5c9tQ/o.jpg", "is_closed": false, "url": "https://www.yelp.com/biz/panini-stockholm?adjust_creative=I7bVkPcI6_FKKPb-l4px1w&utm_campaign=yelp_api_v3&utm_medium=api_v3_business_search&utm_source=I7bVkPcI6_FKKPb-l4px1w", "review_count": 3, "categories": [{"alias": "salad", "title": "Salad"}, {"alias": "sandwiches", "title": "Sandwiches"}, {"alias": "italian", "title": "Italian"}], "rating": 4.0, "coordinates": {"latitude": 59.335331, "longitude": 18.0622196}, "transactions": [], "price": "$", "location": {"address1": "Kungsgatan 44", "address2": "Kungshallen", "address3": null, "city": "Stockholm", "zip_code": "111 35", "country": "SE", "state": "AB", "display_address": ["Kungsgatan 44", "Kungshallen", "111  35 Stockholm", "Sweden"]}, "phone": "+468245058", "display_phone": "+46 8 24 50 58", "distance": 694.4171582624244}, {"id": "53U_NjVoqaO3S2CM0r5eHw", "alias": "primo-ciao-ciao-stockholm-6", "name": "Primo Ciao Ciao", "image_url": "https://s3-media3.fl.yelpcdn.com/bphoto/RJkvMJsV5KTQr6_msQht6g/o.jpg", "is_closed": false, "url": "https://www.yelp.com/biz/primo-ciao-ciao-stockholm-6?adjust_creative=I7bVkPcI6_FKKPb-l4px1w&utm_campaign=yelp_api_v3&utm_medium=api_v3_business_search&utm_source=I7bVkPcI6_FKKPb-l4px1w", "review_count": 9, "categories": [{"alias": "italian", "title": "Italian"}], "rating": 4.0, "coordinates": {"latitude": 59.33173, "longitude": 18.04942}, "transactions": [], "price": "$$", "location": {"address1": "Kungsbroplan 1", "address2": "", "address3": "", "city": "Stockholm", "zip_code": "112 27", "country": "SE", "state": "AB", "display_address": ["Kungsbroplan 1", "112  27 Stockholm", "Sweden"]}, "phone": "+468313101", "display_phone": "+46 8 31 31 01", "distance": 798.185644657494}, {"id": "Q9wsDVn7vHd7kqWb6xJI9A", "alias": "moms-kitchen-stockholm", "name": "Mom's Kitchen", "image_url": "https://s3-media1.fl.yelpcdn.com/bphoto/EHj8PUcXLjbGFR46Iv80Ng/o.jpg", "is_closed": false, "url": "https://www.yelp.com/biz/moms-kitchen-stockholm?adjust_creative=I7bVkPcI6_FKKPb-l4px1w&utm_campaign=yelp_api_v3&utm_medium=api_v3_business_search&utm_source=I7bVkPcI6_FKKPb-l4px1w", "review_count": 19, "categories": [{"alias": "salad", "title": "Salad"}, {"alias": "catering", "title": "Caterers"}, {"alias": "scandinavian", "title": "Scandinavian"}], "rating": 5.0, "coordinates": {"latitude": 59.3380560050505, "longitude": 18.080203520318}, "transactions": [], "price": "$", "location": {"address1": "Nybrogatan 40", "address2": "", "address3": "", "city": "Stockholm", "zip_code": "114 40", "country": "SE", "state": "AB", "display_address": ["Nybrogatan 40", "114  40 Stockholm", "Sweden"]}, "phone": "+4686612727", "display_phone": "+46 8 661 27 27", "distance": 1407.9669767098985}, {"id": "UwAk1poSX-rt3dvUS58RUQ", "alias": "il-picchio-restaurang-stockholm", "name": "Il Picchio Restaurang", "image_url": "https://s3-media4.fl.yelpcdn.com/bphoto/jPWDoKn_2urV4JpmHDIHmw/o.jpg", "is_closed": false, "url": "https://www.yelp.com/biz/il-picchio-restaurang-stockholm?adjust_creative=I7bVkPcI6_FKKPb-l4px1w&utm_campaign=yelp_api_v3&utm_medium=api_v3_business_search&utm_source=I7bVkPcI6_FKKPb-l4px1w", "review_count": 4, "categories": [{"alias": "italian", "title": "Italian"}], "rating": 5.0, "coordinates": {"latitude": 59.33021, "longitude": 18.02629}, "transactions": [], "location": {"address1": "Fridhemsgatan 3", "address2": null, "address3": "", "city": "Stockholm", "zip_code": "112 40", "country": "SE", "state": "AB", "display_address": ["Fridhemsgatan 3", "112  40 Stockholm", "Sweden"]}, "phone": "+4686518800", "display_phone": "+46 8 651 88 00", "distance": 2060.2317451279764}, {"id": "830nJSwBdUZjKIMXfM3ubQ", "alias": "nostrano-stockholm", "name": "Nostrano", "image_url": "https://s3-media3.fl.yelpcdn.com/bphoto/CnH9PW84vXmiy9agPLTRrQ/o.jpg", "is_closed": false, "url": "https://www.yelp.com/biz/nostrano-stockholm?adjust_creative=I7bVkPcI6_FKKPb-l4px1w&utm_campaign=yelp_api_v3&utm_medium=api_v3_business_search&utm_source=I7bVkPcI6_FKKPb-l4px1w", "review_count": 10, "categories": [{"alias": "italian", "title": "Italian"}], "rating": 4.5, "coordinates": {"latitude": 59.3189812, "longitude": 18.0597706}, "transactions": [], "price": "$$$", "location": {"address1": "Timmermansgatan 13", "address2": "", "address3": "", "city": "Stockholm", "zip_code": "118 25", "country": "SE", "state": "AB", "display_address": ["Timmermansgatan 13", "118  25 Stockholm", "Sweden"]}, "phone": "+4686441035", "display_phone": "+46 8 644 10 35", "distance": 1141.5808712556895}, {"id": "xUR25FAWNyjHVuOafg1qwQ", "alias": "corvina-enoteca-stockholm", "name": "Corvina Enoteca", "image_url": "https://s3-media2.fl.yelpcdn.com/bphoto/RzMk59-hqT9AzkbGanxObw/o.jpg", "is_closed": false, "url": "https://www.yelp.com/biz/corvina-enoteca-stockholm?adjust_creative=I7bVkPcI6_FKKPb-l4px1w&utm_campaign=yelp_api_v3&utm_medium=api_v3_business_search&utm_source=I7bVkPcI6_FKKPb-l4px1w", "review_count": 38, "categories": [{"alias": "wine_bars", "title": "Wine Bars"}, {"alias": "tapasmallplates", "title": "Tapas/Small Plates"}], "rating": 4.5, "coordinates": {"latitude": 59.3230982, "longitude": 18.0711094}, "transactions": [], "price": "$$", "location": {"address1": "Kornhamnstorg 47", "address2": "", "address3": "", "city": "Stockholm", "zip_code": "111 27", "country": "SE", "state": "AB", "display_address": ["Kornhamnstorg 47", "111  27 Stockholm", "Sweden"]}, "phone": "+4686605997", "display_phone": "+46 8 660 59 97", "distance": 829.8320363517861}, {"id": "EkxJvBDvNO7FFlXkf9n1cg", "alias": "la-vecchia-signora-stockholm", "name": "La Vecchia Signora", "image_url": "https://s3-media4.fl.yelpcdn.com/bphoto/FSaio_83LprPJ0lQN8gFZw/o.jpg", "is_closed": false, "url": "https://www.yelp.com/biz/la-vecchia-signora-stockholm?adjust_creative=I7bVkPcI6_FKKPb-l4px1w&utm_campaign=yelp_api_v3&utm_medium=api_v3_business_search&utm_source=I7bVkPcI6_FKKPb-l4px1w", "review_count": 22, "categories": [{"alias": "italian", "title": "Italian"}, {"alias": "catering", "title": "Caterers"}], "rating": 4.5, "coordinates": {"latitude": 59.3144417, "longitude": 18.0848808}, "transactions": [], "price": "$$$", "location": {"address1": "\u00c5s\u00f6gatan 163", "address2": null, "address3": null, "city": "Stockholm", "zip_code": "116 32", "country": "SE", "state": "AB", "display_address": ["\u00c5s\u00f6gatan 163", "116  32 Stockholm", "Sweden"]}, "phone": "+4686444585", "display_phone": "+46 8 644 45 85", "distance": 2071.3266654422237}, {"id": "d3G6y4OuoidvpEioip1Xng", "alias": "eataly-stockholm", "name": "Eataly", "image_url": "https://s3-media2.fl.yelpcdn.com/bphoto/KRogwzZ9CAZAgsbVwx1tnQ/o.jpg", "is_closed": false, "url": "https://www.yelp.com/biz/eataly-stockholm?adjust_creative=I7bVkPcI6_FKKPb-l4px1w&utm_campaign=yelp_api_v3&utm_medium=api_v3_business_search&utm_source=I7bVkPcI6_FKKPb-l4px1w", "review_count": 16, "categories": [{"alias": "farmersmarket", "title": "Farmers Market"}, {"alias": "italian", "title": "Italian"}], "rating": 2.5, "coordinates": {"latitude": 59.3346416274424, "longitude": 18.0726570690961}, "transactions": [], "price": "$$", "location": {"address1": "Biblioteksgatan 5", "address2": "", "address3": null, "city": "Stockholm", "zip_code": "111 46", "country": "SE", "state": null, "display_address": ["Biblioteksgatan 5", "111  46 Stockholm", "Sweden"]}, "phone": "+46840017500", "display_phone": "+46 8 400 175 00", "distance": 837.2915869603283}, {"id": "RG0y3XrtFCPMm1gEiwSWFg", "alias": "vapiano-stockholm-10", "name": "Vapiano", "image_url": "https://s3-media2.fl.yelpcdn.com/bphoto/SiThD_cRVzR0gbERYsqP2A/o.jpg", "is_closed": false, "url": "https://www.yelp.com/biz/vapiano-stockholm-10?adjust_creative=I7bVkPcI6_FKKPb-l4px1w&utm_campaign=yelp_api_v3&utm_medium=api_v3_business_search&utm_source=I7bVkPcI6_FKKPb-l4px1w", "review_count": 60, "categories": [{"alias": "italian", "title": "Italian"}], "rating": 3.5, "coordinates": {"latitude": 59.3234059, "longitude": 18.0680234}, "transactions": [], "price": "$", "location": {"address1": "Munkbrogatan 8", "address2": null, "address3": null, "city": "Stockholm", "zip_code": "111 27", "country": "SE", "state": "AB", "display_address": ["Munkbrogatan 8", "111  27 Stockholm", "Sweden"]}, "phone": "+468222940", "display_phone": "+46 8 22 29 40", "distance": 710.2459669826538}, {"id": "mo53-vL0-JdsCVx1M_Ndfw", "alias": "jamies-italian-stureplan-stockholm", "name": "Jamie's italian Stureplan", "image_url": "https://s3-media1.fl.yelpcdn.com/bphoto/iI6vPH_3C1C-fgh6fc-6sA/o.jpg", "is_closed": false, "url": "https://www.yelp.com/biz/jamies-italian-stureplan-stockholm?adjust_creative=I7bVkPcI6_FKKPb-l4px1w&utm_campaign=yelp_api_v3&utm_medium=api_v3_business_search&utm_source=I7bVkPcI6_FKKPb-l4px1w", "review_count": 72, "categories": [{"alias": "italian", "title": "Italian"}], "rating": 3.0, "coordinates": {"latitude": 59.3368665982837, "longitude": 18.0729530478902}, "transactions": [], "price": "$$", "location": {"address1": "Humleg\u00e5rdsgatan 23", "address2": "", "address3": "", "city": "Stockholm", "zip_code": "114 46", "country": "SE", "state": "AB", "display_address": ["Humleg\u00e5rdsgatan 23", "114  46 Stockholm", "Sweden"]}, "phone": "+46851734020", "display_phone": "+46 8 517 340 20", "distance": 1041.073127531786}, {"id": "TKbbwyR_JMGV7WbahFHBJQ", "alias": "villaggio-stockholm", "name": "Villaggio", "image_url": "https://s3-media3.fl.yelpcdn.com/bphoto/qV1mhZGD7L138YiVw2tJLA/o.jpg", "is_closed": false, "url": "https://www.yelp.com/biz/villaggio-stockholm?adjust_creative=I7bVkPcI6_FKKPb-l4px1w&utm_campaign=yelp_api_v3&utm_medium=api_v3_business_search&utm_source=I7bVkPcI6_FKKPb-l4px1w", "review_count": 6, "categories": [{"alias": "italian", "title": "Italian"}], "rating": 3.5, "coordinates": {"latitude": 59.3328145797486, "longitude": 18.082164041698}, "transactions": [], "location": {"address1": "Skeppargatan 16", "address2": "", "address3": "", "city": "Stockholm", "zip_code": "114 57", "country": "SE", "state": "AB", "display_address": ["Skeppargatan 16", "114  57 Stockholm", "Sweden"]}, "phone": "+4686612730", "display_phone": "+46 8 661 27 30", "distance": 1184.5099620263454}, {"id": "-hzZJlVqemMbpSgpBm1GBQ", "alias": "il-di-vino-stockholm", "name": "Il Di Vino", "image_url": "https://s3-media2.fl.yelpcdn.com/bphoto/hXwJ3uQ8ZDpV5AsTCMhcCA/o.jpg", "is_closed": false, "url": "https://www.yelp.com/biz/il-di-vino-stockholm?adjust_creative=I7bVkPcI6_FKKPb-l4px1w&utm_campaign=yelp_api_v3&utm_medium=api_v3_business_search&utm_source=I7bVkPcI6_FKKPb-l4px1w", "review_count": 2, "categories": [{"alias": "italian", "title": "Italian"}], "rating": 4.5, "coordinates": {"latitude": 59.3407220821673, "longitude": 18.0598735436797}, "transactions": [], "location": {"address1": "R\u00e5dmansgatan 52", "address2": "113 58 Stockholm", "address3": null, "city": "Stockholm", "zip_code": "113 57", "country": "SE", "state": "AB", "display_address": ["R\u00e5dmansgatan 52", "113 58 Stockholm", "113  57 Stockholm", "Sweden"]}, "phone": "", "display_phone": "", "distance": 1295.5333101678755}, {"id": "iYHOvwLpG6odDBWzQOIV6g", "alias": "caff\u00e9-nero-stockholm", "name": "Caff\u00e9 Nero", "image_url": "https://s3-media2.fl.yelpcdn.com/bphoto/mh1Vfx1cCr_nHiti3QwmQQ/o.jpg", "is_closed": false, "url": "https://www.yelp.com/biz/caff%C3%A9-nero-stockholm?adjust_creative=I7bVkPcI6_FKKPb-l4px1w&utm_campaign=yelp_api_v3&utm_medium=api_v3_business_search&utm_source=I7bVkPcI6_FKKPb-l4px1w", "review_count": 19, "categories": [{"alias": "coffee", "title": "Coffee & Tea"}, {"alias": "italian", "title": "Italian"}, {"alias": "cafes", "title": "Cafes"}], "rating": 4.0, "coordinates": {"latitude": 59.3447113, "longitude": 18.0617294}, "transactions": [], "price": "$$", "location": {"address1": "Roslagsgatan 4", "address2": null, "address3": null, "city": "Stockholm", "zip_code": "113 55", "country": "SE", "state": "AB", "display_address": ["Roslagsgatan 4", "113  55 Stockholm", "Sweden"]}, "phone": "+468221935", "display_phone": "+46 8 22 19 35", "distance": 1737.1374914623223}, {"id": "ichY2Of59edQRG8dwVwklQ", "alias": "la-casa-trattoria-italiana-stockholm", "name": "La Casa Trattoria Italiana", "image_url": "https://s3-media2.fl.yelpcdn.com/bphoto/Mwez8hMcPcGxVrE10wHgZg/o.jpg", "is_closed": false, "url": "https://www.yelp.com/biz/la-casa-trattoria-italiana-stockholm?adjust_creative=I7bVkPcI6_FKKPb-l4px1w&utm_campaign=yelp_api_v3&utm_medium=api_v3_business_search&utm_source=I7bVkPcI6_FKKPb-l4px1w", "review_count": 18, "categories": [{"alias": "italian", "title": "Italian"}], "rating": 4.0, "coordinates": {"latitude": 59.3181458, "longitude": 18.0316925}, "transactions": [], "price": "$$", "location": {"address1": "H\u00f6galidsgatan 21", "address2": null, "address3": null, "city": "Stockholm", "zip_code": "117 33", "country": "SE", "state": "AB", "display_address": ["H\u00f6galidsgatan 21", "117  33 Stockholm", "Sweden"]}, "phone": "+4686687830", "display_phone": "+46 8 668 78 30", "distance": 2122.483312552306}, {"id": "lKvpSbMuoErSYlVs5HaYeA", "alias": "un-poco-stockholm", "name": "Un Poco", "image_url": "https://s3-media2.fl.yelpcdn.com/bphoto/73QbU4UkeHiANDfuemaCsQ/o.jpg", "is_closed": false, "url": "https://www.yelp.com/biz/un-poco-stockholm?adjust_creative=I7bVkPcI6_FKKPb-l4px1w&utm_campaign=yelp_api_v3&utm_medium=api_v3_business_search&utm_source=I7bVkPcI6_FKKPb-l4px1w", "review_count": 33, "categories": [{"alias": "italian", "title": "Italian"}], "rating": 4.5, "coordinates": {"latitude": 59.3419304, "longitude": 18.0695896}, "transactions": [], "price": "$$$", "location": {"address1": "Karlav\u00e4gen 28", "address2": "", "address3": "", "city": "Stockholm", "zip_code": "114 31", "country": "SE", "state": "AB", "display_address": ["Karlav\u00e4gen 28", "114  31 Stockholm", "Sweden"]}, "phone": "+4686110269", "display_phone": "+46 8 611 02 69", "distance": 1471.4337538981601}, {"id": "Yqqrj2-WHwbZ8JMGeze76w", "alias": "den-gamle-och-havet-stockholm", "name": "Den Gamle och Havet", "image_url": "https://s3-media1.fl.yelpcdn.com/bphoto/Q8AhDTE8RXUAfsHF7jLnog/o.jpg", "is_closed": false, "url": "https://www.yelp.com/biz/den-gamle-och-havet-stockholm?adjust_creative=I7bVkPcI6_FKKPb-l4px1w&utm_campaign=yelp_api_v3&utm_medium=api_v3_business_search&utm_source=I7bVkPcI6_FKKPb-l4px1w", "review_count": 33, "categories": [{"alias": "italian", "title": "Italian"}, {"alias": "seafood", "title": "Seafood"}], "rating": 4.0, "coordinates": {"latitude": 59.3439598, "longitude": 18.0603695}, "transactions": [], "price": "$$", "location": {"address1": "Tulegatan 27", "address2": null, "address3": null, "city": "Stockholm", "zip_code": "113 53", "country": "SE", "state": "AB", "display_address": ["Tulegatan 27", "113  53 Stockholm", "Sweden"]}, "phone": "+4686615300", "display_phone": "+46 8 661 53 00", "distance": 1651.2956830824721}, {"id": "U4QCHAY9jz37PZLYjIUMuQ", "alias": "chokladkoppen-stockholm", "name": "Chokladkoppen", "image_url": "https://s3-media1.fl.yelpcdn.com/bphoto/InlcQcp68lwGiQieiHPaGw/o.jpg", "is_closed": false, "url": "https://www.yelp.com/biz/chokladkoppen-stockholm?adjust_creative=I7bVkPcI6_FKKPb-l4px1w&utm_campaign=yelp_api_v3&utm_medium=api_v3_business_search&utm_source=I7bVkPcI6_FKKPb-l4px1w", "review_count": 92, "categories": [{"alias": "cafes", "title": "Cafes"}, {"alias": "coffee", "title": "Coffee & Tea"}, {"alias": "chocolate", "title": "Chocolatiers & Shops"}], "rating": 4.0, "coordinates": {"latitude": 59.325025169453, "longitude": 18.07030259079}, "transactions": [], "price": "$", "location": {"address1": "Stortorget 18", "address2": "Gamla Stan", "address3": null, "city": "Stockholm", "zip_code": "111 29", "country": "SE", "state": "AB", "display_address": ["Stortorget 18", "Gamla Stan", "111  29 Stockholm", "Sweden"]}, "phone": "+468203170", "display_phone": "+46 8 20 31 70", "distance": 635.4076404715714}, {"id": "NBf4bk-n8C0kQnmWilF8kg", "alias": "asso-di-quadri-stockholm", "name": "Asso di Quadri", "image_url": "https://s3-media3.fl.yelpcdn.com/bphoto/MHWhVt7pDGVT-dZDhng1sw/o.jpg", "is_closed": false, "url": "https://www.yelp.com/biz/asso-di-quadri-stockholm?adjust_creative=I7bVkPcI6_FKKPb-l4px1w&utm_campaign=yelp_api_v3&utm_medium=api_v3_business_search&utm_source=I7bVkPcI6_FKKPb-l4px1w", "review_count": 1, "categories": [{"alias": "bars", "title": "Bars"}, {"alias": "pizza", "title": "Pizza"}, {"alias": "italian", "title": "Italian"}], "rating": 2.0, "coordinates": {"latitude": 59.3304469414102, "longitude": 18.0576157072859}, "transactions": [], "price": "$", "location": {"address1": "Klarabergsviadukten 47", "address2": "", "address3": "", "city": "Stockholm", "zip_code": "111 64", "country": "SE", "state": "AB", "display_address": ["Klarabergsviadukten 47", "111  64 Stockholm", "Sweden"]}, "phone": "+46736881774", "display_phone": "+46 73 688 17 74", "distance": 314.9385347428365}, {"id": "HxsyPQJDEBhHmA-Gy5_UtA", "alias": "d\u00e4rmed-pasta-stockholm", "name": "D\u00e4rmed Pasta", "image_url": "https://s3-media1.fl.yelpcdn.com/bphoto/-76SeBOPKTs8J38YjdzmXA/o.jpg", "is_closed": false, "url": "https://www.yelp.com/biz/d%C3%A4rmed-pasta-stockholm?adjust_creative=I7bVkPcI6_FKKPb-l4px1w&utm_campaign=yelp_api_v3&utm_medium=api_v3_business_search&utm_source=I7bVkPcI6_FKKPb-l4px1w", "review_count": 17, "categories": [{"alias": "italian", "title": "Italian"}], "rating": 3.0, "coordinates": {"latitude": 59.3177299, "longitude": 18.0328903}, "transactions": [], "price": "$$", "location": {"address1": "L\u00e5ngholmsgatan 5", "address2": null, "address3": null, "city": "Stockholm", "zip_code": "117 33", "country": "SE", "state": "AB", "display_address": ["L\u00e5ngholmsgatan 5", "117  33 Stockholm", "Sweden"]}, "phone": "+4686683402", "display_phone": "+46 8 668 34 02", "distance": 2106.7187967031605}, {"id": "SoLz31QULz7k9Y0U7g9Zjg", "alias": "o-pizzicato-stockholm", "name": "O'Pizzicato", "image_url": "https://s3-media4.fl.yelpcdn.com/bphoto/mFZvudHEXfJ49ng6tXrLPA/o.jpg", "is_closed": false, "url": "https://www.yelp.com/biz/o-pizzicato-stockholm?adjust_creative=I7bVkPcI6_FKKPb-l4px1w&utm_campaign=yelp_api_v3&utm_medium=api_v3_business_search&utm_source=I7bVkPcI6_FKKPb-l4px1w", "review_count": 8, "categories": [{"alias": "italian", "title": "Italian"}], "rating": 4.0, "coordinates": {"latitude": 59.3138007310311, "longitude": 18.0652418846557}, "transactions": [], "price": "$$", "location": {"address1": "Swedenborgsg. 23", "address2": null, "address3": null, "city": "Stockholm", "zip_code": "118 27", "country": "SE", "state": "AB", "display_address": ["Swedenborgsg. 23", "118  27 Stockholm", "Sweden"]}, "phone": "+4687201575", "display_phone": "+46 8 720 15 75", "distance": 1713.7274695199962}, {"id": "eNXSlMGDmbwU2yItrLGyMg", "alias": "tonys-stockholm", "name": "Tony's", "image_url": "https://s3-media3.fl.yelpcdn.com/bphoto/wFmtTZqHxWROi03_w0KO1g/o.jpg", "is_closed": false, "url": "https://www.yelp.com/biz/tonys-stockholm?adjust_creative=I7bVkPcI6_FKKPb-l4px1w&utm_campaign=yelp_api_v3&utm_medium=api_v3_business_search&utm_source=I7bVkPcI6_FKKPb-l4px1w", "review_count": 1, "categories": [{"alias": "salad", "title": "Salad"}, {"alias": "italian", "title": "Italian"}, {"alias": "pizza", "title": "Pizza"}], "rating": 5.0, "coordinates": {"latitude": 59.31906, "longitude": 18.06502}, "transactions": [], "location": {"address1": "Hornsgatan 29A", "address2": "", "address3": "", "city": "Stockholm", "zip_code": "118 49", "country": "SE", "state": "AB", "display_address": ["Hornsgatan 29A", "118  49 Stockholm", "Sweden"]}, "phone": "+4686150246", "display_phone": "+46 8 615 02 46", "distance": 1133.4878126089816}, {"id": "X0-3js9gqZ5OneFiFQ7eKg", "alias": "dolce-vita-stockholm", "name": "Dolce Vita", "image_url": "https://s3-media3.fl.yelpcdn.com/bphoto/EKUehvxCFFg_qvkfddROfQ/o.jpg", "is_closed": false, "url": "https://www.yelp.com/biz/dolce-vita-stockholm?adjust_creative=I7bVkPcI6_FKKPb-l4px1w&utm_campaign=yelp_api_v3&utm_medium=api_v3_business_search&utm_source=I7bVkPcI6_FKKPb-l4px1w", "review_count": 16, "categories": [{"alias": "pizza", "title": "Pizza"}, {"alias": "italian", "title": "Italian"}, {"alias": "traditional_swedish", "title": "Traditional Swedish"}], "rating": 3.5, "coordinates": {"latitude": 59.3313604737267, "longitude": 18.0467893678464}, "transactions": [], "price": "$$", "location": {"address1": "Kungsholmsgatan 16", "address2": null, "address3": null, "city": "Stockholm", "zip_code": "112 27", "country": "SE", "state": "AB", "display_address": ["Kungsholmsgatan 16", "112  27 Stockholm", "Sweden"]}, "phone": "+4686515160", "display_phone": "+46 8 651 51 60", "distance": 927.248492236828}, {"id": "0BrkqSZ1joN-3WP4SPlOJw", "alias": "il-giardino-ristorante-stockholm", "name": "Il Giardino Ristorante", "image_url": "https://s3-media2.fl.yelpcdn.com/bphoto/ubLPu-YlAE9oHUaesO3T7Q/o.jpg", "is_closed": false, "url": "https://www.yelp.com/biz/il-giardino-ristorante-stockholm?adjust_creative=I7bVkPcI6_FKKPb-l4px1w&utm_campaign=yelp_api_v3&utm_medium=api_v3_business_search&utm_source=I7bVkPcI6_FKKPb-l4px1w", "review_count": 4, "categories": [{"alias": "italian", "title": "Italian"}], "rating": 2.0, "coordinates": {"latitude": 59.3304596, "longitude": 18.0658092}, "transactions": [], "location": {"address1": "Herkulesgatan 5", "address2": "", "address3": "", "city": "Stockholm", "zip_code": "111 52", "country": "SE", "state": "AB", "display_address": ["Herkulesgatan 5", "111  52 Stockholm", "Sweden"]}, "phone": "+468233301", "display_phone": "+46 8 23 33 01", "distance": 235.85260986402957}, {"id": "_0z_vfRuub4enu70PLrHpQ", "alias": "primo-ciao-ciao-stockholm-4", "name": "Primo Ciao Ciao", "image_url": "https://s3-media3.fl.yelpcdn.com/bphoto/QRI-SJ8Au50uDvaSScsFYg/o.jpg", "is_closed": false, "url": "https://www.yelp.com/biz/primo-ciao-ciao-stockholm-4?adjust_creative=I7bVkPcI6_FKKPb-l4px1w&utm_campaign=yelp_api_v3&utm_medium=api_v3_business_search&utm_source=I7bVkPcI6_FKKPb-l4px1w", "review_count": 27, "categories": [{"alias": "pizza", "title": "Pizza"}, {"alias": "italian", "title": "Italian"}], "rating": 3.0, "coordinates": {"latitude": 59.313216657261, "longitude": 18.082650367377}, "transactions": [], "price": "$$", "location": {"address1": "Bondeg. 44", "address2": null, "address3": null, "city": "Stockholm", "zip_code": "116 33", "country": "SE", "state": "AB", "display_address": ["Bondeg. 44", "116  33 Stockholm", "Sweden"]}, "phone": "+4686400110", "display_phone": "+46 8 640 01 10", "distance": 2107.0264418690963}, {"id": "B7i5VnuyEgZTFISQYGDsig", "alias": "vapiano-stockholm-8", "name": "Vapiano", "image_url": "https://s3-media3.fl.yelpcdn.com/bphoto/d6Bm2tbm52mlhIwbILEW9A/o.jpg", "is_closed": false, "url": "https://www.yelp.com/biz/vapiano-stockholm-8?adjust_creative=I7bVkPcI6_FKKPb-l4px1w&utm_campaign=yelp_api_v3&utm_medium=api_v3_business_search&utm_source=I7bVkPcI6_FKKPb-l4px1w", "review_count": 16, "categories": [{"alias": "italian", "title": "Italian"}], "rating": 3.0, "coordinates": {"latitude": 59.3120368, "longitude": 18.0739291}, "transactions": [], "price": "$$", "location": {"address1": "G\u00f6tgatan 78", "address2": "", "address3": "", "city": "Stockholm", "zip_code": "118 30", "country": "SE", "state": "AB", "display_address": ["G\u00f6tgatan 78", "118  30 Stockholm", "Sweden"]}, "phone": "+46812134140", "display_phone": "+46 8 121 341 40", "distance": 2009.5290889454652}, {"id": "sC0o9qV2NwJZPOXrs_78cw", "alias": "trattorian-stockholm", "name": "Trattorian", "image_url": "https://s3-media3.fl.yelpcdn.com/bphoto/HFgFlwr412IgDV2_QVewaw/o.jpg", "is_closed": false, "url": "https://www.yelp.com/biz/trattorian-stockholm?adjust_creative=I7bVkPcI6_FKKPb-l4px1w&utm_campaign=yelp_api_v3&utm_medium=api_v3_business_search&utm_source=I7bVkPcI6_FKKPb-l4px1w", "review_count": 43, "categories": [{"alias": "italian", "title": "Italian"}], "rating": 3.0, "coordinates": {"latitude": 59.326381, "longitude": 18.043585}, "transactions": [], "price": "$$$", "location": {"address1": "Norr M\u00e4larstrand", "address2": "Kajplats 464", "address3": "", "city": "Stockholm", "zip_code": "112 20", "country": "SE", "state": "AB", "display_address": ["Norr M\u00e4larstrand", "Kajplats 464", "112  20 Stockholm", "Sweden"]}, "phone": "+46868423878", "display_phone": "+46 8 684 238 78", "distance": 1119.1859906316204}, {"id": "sWXYkM2iVERRfsLVJnF2pg", "alias": "d\u00f6belns-pasta-stockholm", "name": "D\u00f6belns Pasta", "image_url": "https://s3-media2.fl.yelpcdn.com/bphoto/lpJOQW_duJBngt9W3DwUeg/o.jpg", "is_closed": false, "url": "https://www.yelp.com/biz/d%C3%B6belns-pasta-stockholm?adjust_creative=I7bVkPcI6_FKKPb-l4px1w&utm_campaign=yelp_api_v3&utm_medium=api_v3_business_search&utm_source=I7bVkPcI6_FKKPb-l4px1w", "review_count": 5, "categories": [{"alias": "pizza", "title": "Pizza"}, {"alias": "italian", "title": "Italian"}], "rating": 3.0, "coordinates": {"latitude": 59.3424683, "longitude": 18.0602303}, "transactions": [], "price": "$", "location": {"address1": "D\u00f6belnsgatan 34D", "address2": "", "address3": "", "city": "Stockholm", "zip_code": "113 52", "country": "SE", "state": "AB", "display_address": ["D\u00f6belnsgatan 34D", "113  52 Stockholm", "Sweden"]}, "phone": "+4686734295", "display_phone": "+46 8 673 42 95", "distance": 1487.996716676253}, {"id": "ljS43DTIN4lHEYon-nWXhA", "alias": "hubertus-restaurang-stockholm", "name": "Hubertus Restaurang", "image_url": "https://s3-media2.fl.yelpcdn.com/bphoto/xddXzMSdgGpjPCmFhrX1rQ/o.jpg", "is_closed": false, "url": "https://www.yelp.com/biz/hubertus-restaurang-stockholm?adjust_creative=I7bVkPcI6_FKKPb-l4px1w&utm_campaign=yelp_api_v3&utm_medium=api_v3_business_search&utm_source=I7bVkPcI6_FKKPb-l4px1w", "review_count": 3, "categories": [{"alias": "italian", "title": "Italian"}], "rating": 4.5, "coordinates": {"latitude": 59.3364601, "longitude": 18.0606003}, "transactions": [], "price": "$", "location": {"address1": "Holl\u00e4ndarg. 9 A", "address2": null, "address3": null, "city": "Stockholm", "zip_code": "111 36", "country": "SE", "state": "AB", "display_address": ["Holl\u00e4ndarg. 9 A", "111  36 Stockholm", "Sweden"]}, "phone": "+468100649", "display_phone": "+46 8 10 06 49", "distance": 846.3650507812307}, {"id": "qhTALoz_zqA5vYWIiwT6ZQ", "alias": "agaton-stockholm-2", "name": "Agaton", "image_url": "https://s3-media1.fl.yelpcdn.com/bphoto/wcyDegoYN8TX8ChMuRudwA/o.jpg", "is_closed": false, "url": "https://www.yelp.com/biz/agaton-stockholm-2?adjust_creative=I7bVkPcI6_FKKPb-l4px1w&utm_campaign=yelp_api_v3&utm_medium=api_v3_business_search&utm_source=I7bVkPcI6_FKKPb-l4px1w", "review_count": 51, "categories": [{"alias": "italian", "title": "Italian"}], "rating": 3.5, "coordinates": {"latitude": 59.32296, "longitude": 18.07228}, "transactions": [], "price": "$$", "location": {"address1": "V\u00e4sterl\u00e5nggatan 72", "address2": null, "address3": null, "city": "Stockholm", "zip_code": "111 29", "country": "SE", "state": "AB", "display_address": ["V\u00e4sterl\u00e5nggatan 72", "111  29 Stockholm", "Sweden"]}, "phone": "+468207299", "display_phone": "+46 8 20 72 99", "distance": 882.7139007487033}, {"id": "gbYPNzV-4hCk-llsVoAmYQ", "alias": "enoteca-och-cucina-italiana-stockholm-2", "name": "Enoteca & Cucina Italiana", "image_url": "https://s3-media1.fl.yelpcdn.com/bphoto/mNX-_kz6c4hbJY74ZDaB0g/o.jpg", "is_closed": false, "url": "https://www.yelp.com/biz/enoteca-och-cucina-italiana-stockholm-2?adjust_creative=I7bVkPcI6_FKKPb-l4px1w&utm_campaign=yelp_api_v3&utm_medium=api_v3_business_search&utm_source=I7bVkPcI6_FKKPb-l4px1w", "review_count": 2, "categories": [{"alias": "pizza", "title": "Pizza"}, {"alias": "italian", "title": "Italian"}], "rating": 4.0, "coordinates": {"latitude": 59.32687, "longitude": 18.0437603}, "transactions": [], "price": "$$", "location": {"address1": "Norrm\u00e4larstrand 30", "address2": "", "address3": "", "city": "Stockholm", "zip_code": "112 20", "country": "SE", "state": "AB", "display_address": ["Norrm\u00e4larstrand 30", "112  20 Stockholm", "Sweden"]}, "phone": "+4686534777", "display_phone": "+46 8 653 47 77", "distance": 1099.914115087096}, {"id": "L9-YRSPTecKZImqxJc6DjQ", "alias": "pane-fresco-stockholm", "name": "Pane fresco", "image_url": "https://s3-media2.fl.yelpcdn.com/bphoto/281xBgZb4P4c9R6b-Ywz2w/o.jpg", "is_closed": false, "url": "https://www.yelp.com/biz/pane-fresco-stockholm?adjust_creative=I7bVkPcI6_FKKPb-l4px1w&utm_campaign=yelp_api_v3&utm_medium=api_v3_business_search&utm_source=I7bVkPcI6_FKKPb-l4px1w", "review_count": 35, "categories": [{"alias": "italian", "title": "Italian"}], "rating": 2.5, "coordinates": {"latitude": 59.3325448644455, "longitude": 18.0629531113544}, "transactions": [], "price": "$$", "location": {"address1": "\u00c5hlens City", "address2": "Plan 4", "address3": "Klarabergsgatan 50", "city": "Stockholm", "zip_code": "111 29", "country": "SE", "state": "AB", "display_address": ["\u00c5hlens City", "Plan 4", "Klarabergsgatan 50", "111  29 Stockholm", "Sweden"]}, "phone": "+468828284", "display_phone": "+46 8 82 82 84", "distance": 378.0044542117075}, {"id": "VjbEQ5psljv0hc60IlIstQ", "alias": "panini-internazionale-stockholm-17", "name": "Panini Internazionale", "image_url": "https://s3-media2.fl.yelpcdn.com/bphoto/0v6FLR8DYTzo-hZH7-h7qQ/o.jpg", "is_closed": false, "url": "https://www.yelp.com/biz/panini-internazionale-stockholm-17?adjust_creative=I7bVkPcI6_FKKPb-l4px1w&utm_campaign=yelp_api_v3&utm_medium=api_v3_business_search&utm_source=I7bVkPcI6_FKKPb-l4px1w", "review_count": 2, "categories": [{"alias": "salad", "title": "Salad"}, {"alias": "italian", "title": "Italian"}, {"alias": "sandwiches", "title": "Sandwiches"}], "rating": 4.0, "coordinates": {"latitude": 59.3142258, "longitude": 18.0710267}, "transactions": [], "price": "$$", "location": {"address1": "Medborgarplatsen 1", "address2": "", "address3": "", "city": "Stockholm", "zip_code": "118 26", "country": "SE", "state": "AB", "display_address": ["Medborgarplatsen 1", "118  26 Stockholm", "Sweden"]}, "phone": "+4686436200", "display_phone": "+46 8 643 62 00", "distance": 1727.8788622066334}, {"id": "4FejHYqWLrhXssgVvDAyNA", "alias": "primo-ciao-ciao-stockholm", "name": "Primo Ciao Ciao", "image_url": "https://s3-media2.fl.yelpcdn.com/bphoto/tnSIl8JLwKB0RvRQo3MdTQ/o.jpg", "is_closed": false, "url": "https://www.yelp.com/biz/primo-ciao-ciao-stockholm?adjust_creative=I7bVkPcI6_FKKPb-l4px1w&utm_campaign=yelp_api_v3&utm_medium=api_v3_business_search&utm_source=I7bVkPcI6_FKKPb-l4px1w", "review_count": 21, "categories": [{"alias": "italian", "title": "Italian"}, {"alias": "pizza", "title": "Pizza"}], "rating": 3.5, "coordinates": {"latitude": 59.330917522347, "longitude": 18.032375862661}, "transactions": [], "price": "$$", "location": {"address1": "Hantverkargatan 76 A", "address2": null, "address3": null, "city": "Stockholm", "zip_code": "112 38", "country": "SE", "state": "AB", "display_address": ["Hantverkargatan 76 A", "112  38 Stockholm", "Sweden"]}, "phone": "+4686539023", "display_phone": "+46 8 653 90 23", "distance": 1722.8856051343712}, {"id": "-Q5FQtCe74NDP7g3g3EP_w", "alias": "pasta-gudfadern-stockholm-2", "name": "Pasta gudfadern", "image_url": "https://s3-media4.fl.yelpcdn.com/bphoto/5p9aJlpgcD8i7To_7aNldQ/o.jpg", "is_closed": false, "url": "https://www.yelp.com/biz/pasta-gudfadern-stockholm-2?adjust_creative=I7bVkPcI6_FKKPb-l4px1w&utm_campaign=yelp_api_v3&utm_medium=api_v3_business_search&utm_source=I7bVkPcI6_FKKPb-l4px1w", "review_count": 1, "categories": [{"alias": "italian", "title": "Italian"}, {"alias": "arabian", "title": "Arabian"}], "rating": 4.0, "coordinates": {"latitude": 59.3146045623924, "longitude": 18.0703707039356}, "transactions": [], "location": {"address1": "S\u00f6derhallarna", "address2": "", "address3": "", "city": "Stockholm", "zip_code": "118 28", "country": "SE", "state": "AB", "display_address": ["S\u00f6derhallarna", "118  28 Stockholm", "Sweden"]}, "phone": "", "display_phone": "", "distance": 1677.2424673368985}, {"id": "dk5SFUiShUY125umOAb74g", "alias": "polpette-stockholm", "name": "Polpette", "image_url": "https://s3-media3.fl.yelpcdn.com/bphoto/W49Af5yHZ7_7bGtx8OfWPQ/o.jpg", "is_closed": false, "url": "https://www.yelp.com/biz/polpette-stockholm?adjust_creative=I7bVkPcI6_FKKPb-l4px1w&utm_campaign=yelp_api_v3&utm_medium=api_v3_business_search&utm_source=I7bVkPcI6_FKKPb-l4px1w", "review_count": 20, "categories": [{"alias": "italian", "title": "Italian"}], "rating": 2.5, "coordinates": {"latitude": 59.3296913068829, "longitude": 18.0655730421106}, "transactions": [], "price": "$$", "location": {"address1": "Drottninggatan 6", "address2": "", "address3": "", "city": "Stockholm", "zip_code": "111 51", "country": "SE", "state": "AB", "display_address": ["Drottninggatan 6", "111  51 Stockholm", "Sweden"]}, "phone": "", "display_phone": "", "distance": 181.48865478602949}, {"id": "qR9E--QmFgYvp23IP1XBQA", "alias": "trattoria-grazie-stockholm-2", "name": "Trattoria Grazie", "image_url": "https://s3-media2.fl.yelpcdn.com/bphoto/0J3kdkKo-IstJ97rkrPucQ/o.jpg", "is_closed": false, "url": "https://www.yelp.com/biz/trattoria-grazie-stockholm-2?adjust_creative=I7bVkPcI6_FKKPb-l4px1w&utm_campaign=yelp_api_v3&utm_medium=api_v3_business_search&utm_source=I7bVkPcI6_FKKPb-l4px1w", "review_count": 1, "categories": [{"alias": "italian", "title": "Italian"}], "rating": 5.0, "coordinates": {"latitude": 59.3235514121408, "longitude": 18.0027907744683}, "transactions": [], "location": {"address1": "Primusgatan 73", "address2": "", "address3": "", "city": "Stockholm", "zip_code": "112 67", "country": "SE", "state": "AB", "display_address": ["Primusgatan 73", "112  67 Stockholm", "Sweden"]}, "phone": "", "display_phone": "", "distance": 3446.794849366227}, {"id": "Feo_ld--D2k9ZrSYhJAfrg", "alias": "piatti-sundbyberg-2", "name": "Piatti", "image_url": "https://s3-media1.fl.yelpcdn.com/bphoto/sPc4k539MSxGfD1_Ok_ecw/o.jpg", "is_closed": false, "url": "https://www.yelp.com/biz/piatti-sundbyberg-2?adjust_creative=I7bVkPcI6_FKKPb-l4px1w&utm_campaign=yelp_api_v3&utm_medium=api_v3_business_search&utm_source=I7bVkPcI6_FKKPb-l4px1w", "review_count": 2, "categories": [{"alias": "pizza", "title": "Pizza"}, {"alias": "italian", "title": "Italian"}], "rating": 4.5, "coordinates": {"latitude": 59.3652114116716, "longitude": 17.9759492352605}, "transactions": [], "location": {"address1": "Tulegatan 10", "address2": "", "address3": "", "city": "Sundbyberg", "zip_code": "172 78", "country": "SE", "state": "AB", "display_address": ["Tulegatan 10", "172  78 Sundbyberg", "Sweden"]}, "phone": "+468367936", "display_phone": "+46 8 36 79 36", "distance": 6338.957137394587}, {"id": "z-T0kuvG0e-hI2fsFib2SQ", "alias": "forno-romano-liljeholmstorget-stockholm", "name": "Forno Romano Liljeholmstorget", "image_url": "https://s3-media2.fl.yelpcdn.com/bphoto/Er9QcVTnT9aGfPL9aTaqqg/o.jpg", "is_closed": false, "url": "https://www.yelp.com/biz/forno-romano-liljeholmstorget-stockholm?adjust_creative=I7bVkPcI6_FKKPb-l4px1w&utm_campaign=yelp_api_v3&utm_medium=api_v3_business_search&utm_source=I7bVkPcI6_FKKPb-l4px1w", "review_count": 5, "categories": [{"alias": "italian", "title": "Italian"}], "rating": 3.0, "coordinates": {"latitude": 59.3091583, "longitude": 18.0192204}, "transactions": [], "location": {"address1": "Nybohovsbacken 38", "address2": "", "address3": "", "city": "Stockholm", "zip_code": "117 63", "country": "SE", "state": "AB", "display_address": ["Nybohovsbacken 38", "117  63 Stockholm", "Sweden"]}, "phone": "+4686450560", "display_phone": "+46 8 645 05 60", "distance": 3161.999456808508}], "total": 128, "region": {"center": {"longitude": 18.06255340576172, "latitude": 59.32915150430002}}}